[
  {
    "name": "Los Angeles",
    "latitude": 34.0531,
    "longitude": -118.2428,
    "ss": 1.976,
    "s1": 0.704,
    "pga": 0.848
  },
  {
    "name": "Century City",
    "latitude": 34.0498,
    "longitude": -118.4252,
    "ss": 2.064,
    "s1": 0.738,
    "pga": 0.885
  },
  {
    "name": "Northridge",
    "latitude": 34.2283,
    "longitude": -118.5361,
    "ss": 1.748,
    "s1": 0.603,
    "pga": 0.716
  },
  {
    "name": "Long Beach",
    "latitude": 33.7669,
    "longitude": -118.1883,
    "ss": 1.616,
    "s1": 0.588,
    "pga": 0.716
  },
  {
    "name": "Irvine",
    "latitude": 33.6695,
    "longitude": -117.8223,
    "ss": 1.262,
    "s1": 0.451,
    "pga": 0.534
  },
  {
    "name": "Riverside",
    "latitude": 33.9533,
    "longitude": -117.3953,
    "ss": 1.500,
    "s1": 0.587,
    "pga": 0.500
  },
  {
    "name": "San Bernardino",
    "latitude": 34.1083,
    "longitude": -117.2889,
    "ss": 2.153,
    "s1": 0.857,
    "pga": 0.908
  },
  {
    "name": "San Luis Obispo",
    "latitude": 35.2828,
    "longitude": -120.6586,
    "ss": 1.068,
    "s1": 0.394,
    "pga": 0.473
  },
  {
    "name": "San Diego",
    "latitude": 32.7153,
    "longitude": -117.1564,
    "ss": 1.498,
    "s1": 0.504,
    "pga": 0.682
  },
  {
    "name": "Santa Barbara",
    "latitude": 34.4209,
    "longitude": -119.6973,
    "ss": 2.189,
    "s1": 0.792,
    "pga": 0.961
  },
  {
    "name": "Ventura",
    "latitude": 34.2788,
    "longitude": -119.2922,
    "ss": 1.964,
    "s1": 0.739,
    "pga": 0.861
  },
  {
    "name": "Oakland",
    "latitude": 37.8044,
    "longitude": -122.2698,
    "ss": 1.730,
    "s1": 0.656,
    "pga": 0.728
  },
  {
    "name": "Concord",
    "latitude": 37.9779,
    "longitude": -122.0301,
    "ss": 1.881,
    "s1": 0.600,
    "pga": 0.768
  },
  {
    "name": "Monterey",
    "latitude": 36.6003,
    "longitude": -121.8937,
    "ss": 1.331,
    "s1": 0.497,
    "pga": 0.576
  },
  {
    "name": "Sacramento",
    "latitude": 38.5817,
    "longitude": -121.4934,
    "ss": 0.567,
    "s1": 0.253,
    "pga": 0.238
  },
  {
    "name": "San Francisco",
    "latitude": 37.7752,
    "longitude": -122.4185,
    "ss": 1.500,
    "s1": 0.600,
    "pga": 0.571
  },
  {
    "name": "San Mateo",
    "latitude": 37.5631,
    "longitude": -122.3245,
    "ss": 1.911,
    "s1": 0.785,
    "pga": 0.821
  },
  {
    "name": "San Jose",
    "latitude": 37.3395,
    "longitude": -121.8939,
    "ss": 1.500,
    "s1": 0.600,
    "pga": 0.560
  },
  {
    "name": "Santa Cruz",
    "latitude": 36.9741,
    "longitude": -122.0297,
    "ss": 1.640,
    "s1": 0.627,
    "pga": 0.689
  },
  {
    "name": "Vallejo",
    "latitude": 38.1041,
    "longitude": -122.2555,
    "ss": 1.560,
    "s1": 0.600,
    "pga": 0.639
  },
  {
    "name": "Santa Rosa",
    "latitude": 38.4406,
    "longitude": -122.7133,
    "ss": 2.261,
    "s1": 0.876,
    "pga": 0.951
  },
  {
    "name": "Seattle",
    "latitude": 47.6065,
    "longitude": -122.3307,
    "ss": 1.399,
    "s1": 0.488,
    "pga": 0.597
  },
  {
    "name": "Tacoma",
    "latitude": 47.2530,
    "longitude": -122.4432,
    "ss": 1.354,
    "s1": 0.468,
    "pga": 0.500
  },
  {
    "name": "Everett",
    "latitude": 47.9792,
    "longitude": -122.2009,
    "ss": 1.235,
    "s1": 0.438,
    "pga": 0.530
  },
  {
    "name": "Portland",
    "latitude": 45.5236,
    "longitude": -122.6750,
    "ss": 0.884,
    "s1": 0.395,
    "pga": 0.399
  },
  {
    "name": "Salt Lake City",
    "latitude": 40.7609,
    "longitude": -111.8905,
    "ss": 1.494,
    "s1": 0.543,
    "pga": 0.678
  },
  {
    "name": "Boise",
    "latitude": 43.6136,
    "longitude": -116.2025,
    "ss": 0.309,
    "s1": 0.110,
    "pga": 0.136
  },
  {
    "name": "Reno",
    "latitude": 39.5298,
    "longitude": -119.8128,
    "ss": 1.582,
    "s1": 0.559,
    "pga": 0.675
  },
  {
    "name": "Las Vegas",
    "latitude": 36.1751,
    "longitude": -115.1365,
    "ss": 0.594,
    "s1": 0.194,
    "pga": 0.262
  },
  {
    "name": "St. Louis",
    "latitude": 38.6274,
    "longitude": -90.1978,
    "ss":  0.453,
    "s1": 0.160,
    "pga": 0.261
  },
  {
    "name": "Memphis",
    "latitude": 35.1496,
    "longitude": -90.0488,
    "ss":  1.023,
    "s1": 0.347,
    "pga": 0.611
  },
  {
    "name": "Charleston",
    "latitude": 32.7763,
    "longitude": -79.9307,
    "ss":  1.311,
    "s1": 0.386,
    "pga": 0.855
  },
  {
    "name": "Chicago",
    "latitude": 41.8504,
    "longitude": -87.6503,
    "ss":  0.117,
    "s1": 0.063,
    "pga": 0.059
  },
  {
    "name": "New York",
    "latitude": 40.7143,
    "longitude": -74.0060,
    "ss":  0.288,
    "s1": 0.060,
    "pga": 0.178
  }
]
